{
  "1": {
    "id": "1",
    "name": "Sound Wave Mural",
    "landmark_type": "mural",
    "lat": "42.324153",
    "lon": "-72.631860",
    "url": "http://www.panoramio.com/photo/83768697",
    "photographCredits": "Vanessa Oquendo",
    "city": "Northampton",
    "state": "MA"
  },
  "2": {
    "id": "2",
    "name": "Water Music",
    "landmark_type": "sculpture",
    "lat": "42.320514",
    "lon": "-72.628392",
    "url": "http://www.panoramio.com/photo/82449888",
    "photographCredits": "Vanessa Oquendo",
    "address": "Main Street",
    "city": "Northampton",
    "state": "MA",
    "lat": "42.320514",
    "lon": "-72.628392"
  },
  "3": {
    "id": "3",
    "name": "First Born",
    "landmark_type": "sculpture",
    "lat": "42.320514",
    "lon": "-72.628392",
    "url": "http://www.panoramio.com/photo/83488651",
    "photographCredits": "Vanessa Oquendo",
    "city": "Northampton",
    "state": "MA"
  },
  "4": {
    "id": "4",
    "name": "Bike Rail Trail Metal Sculpture",
    "landmark_type": "sculpture",
    "lat": "42.320314",
    "lon": "-72.628644",
    "url": "http://www.panoramio.com/photo/83487396",
    "photographCredits": "Vanessa Oquendo",
    "address": "Main Street",
    "city": "Northampton",
    "state": "MA",
    "lat": "42.320314",
    "lon": "-72.628644"
  },
  "5": {
    "id": "5",
    "name": "Forbes Library",
    "landmark_type": "historic building",
    "lat": "42.316513",
    "lon": "-72.635634",
    "url": "http://historic-northampton.org/virtual_tours/architecture/q3forbes.html",
    "photographCredits": "",
    "address": "20West Street",
    "city": "Northampton",
    "state": "MA",
    "lat": "42.316513",
    "lon": "-72.635634"
  },
  "6": {
    "id": "6",
    "name": "Silverscape building",
    "landmark_type": "historic building",
    "lat": "42.319683",
    "lon": "-72.629865",
    "url": "http://historic-northampton.org/virtual_tours/architecture/q1firstnational.html",
    "photographCredits": "",
    "street": "1 King Street",
    "city": "Northampton",
    "state": "MA",
    "lat": "42.319683",
    "lon": "-72.629865"
  },
  "7": {
    "id":"7",
    "landmark_type":"statue",
    "name":"Sojourner Truth Statue",
    "image_url":"http://www.panoramio.com/photo/82449882",
    "image_credit":"",
    "description":"",
    "url":"",
    "photo":"",
    "photo_credit":" Vanessa Oquendo ",
    "address":"Pine Street and Park Street, Florence",
    "city":"Northampton",
    "state":"MA",
    "lat":"42.33214",
    "lon":"-72.67489"
  },
  "8": {
    "id":"8",
    "landmark_type":"statue",
    "name":"Happy Frog",
    "artist":"",
    "image_url":"http://www.panoramio.com/photo/82449873",
    "image_credit":"",
    "description":"",
    "url":"",
    "address":"129 Main Street",
    "lat":"42.31946",
    "lon":"-72.63137",
    "photo":"",
    "photo_credit":" Vanessa Oquendo "
  },
  "9": {
    "id":"9",
    "landmark_type":"statue",
    "name":"Jackscilla",
    "artist":"",
    "image_url":"http://www.panoramio.com/photo/82449876",
    "image_credit":"",
    "description":"",
    "url":"",
    "address":"57 King Street",
    "lat":"42.321",
    "lon":"-72.631",
    "photo":"",
    "photo_credit":" Vanessa Oquendo "
  },
  "10": {
    "id":"10",
    "landmark_type":"sculpture",
    "name":"Birth",
    "artist":"",
    "image_url":"http://www.panoramio.com/photo/82449866",
    "image_credit":"",
    "description":"",
    "url":"",
    "address":"Gare Parking Garage",
    "lat":"42.3187",
    "lon":"-72.6297",
    "photo":"",
    "photo_credit":" Vanessa Oquendo "
  }
}
