{
  "1": {
    "id": "1",
    "name": "Sound Wave Mural",
    "type": "mural",
    "lat": "42.324153",
    "lon": "-72.631860",
    "url": "http://www.panoramio.com/photo/83768697",
    "photographCredits": "Vanessa Oquendo",
    "city": "Northampton",
    "state": "MA"
  },
  "2": {
    "id": "2",
    "name": "Water Music",
    "type": "sculpture",
    "lat": "42.320514",
    "lon": "-72.628392",
    "url": "http://www.panoramio.com/photo/82449888",
    "photographCredits": "Vanessa Oquendo",
    "street_number": "",
    "street": "Main Street",
    "city": "Northampton",
    "state": "MA",
    "lat": "42.320514",
    "lon": "-72.628392"
  },
  "3": {
    "id": "3",
    "name": "First Born",
    "type": "sculpture",
    "lat": "42.320514",
    "lon": "-72.628392",
    "url": "http://www.panoramio.com/photo/83488651",
    "photographCredits": "Vanessa Oquendo",
    "city": "Northampton",
    "state": "MA"
  },
  "4": {
    "id": "4",
    "name": "Bike Rail Trail Metal Sculpture",
    "type": "sculpture",
    "lat": "42.320314",
    "lon": "-72.628644",
    "url": "http://www.panoramio.com/photo/83487396",
    "photographCredits": "Vanessa Oquendo",
    "street": "Main Street",
    "city": "Northampton",
    "state": "MA",
    "lat": "42.320314",
    "lon": "-72.628644"
  },
  "5": {
    "id": "5",
    "name": "Forbes Library",
    "type": "historic building",
    "lat": "42.316513",
    "lon": "-72.635634",
    "url": "http://historic-northampton.org/virtual_tours/architecture/q3forbes.html",
    "photographCredits": "",
    "street_number": "20",
    "street": "West Street",
    "city": "Northampton",
    "state": "MA",
    "lat": "42.316513",
    "lon": "-72.635634"
  },
  "6": {
    "id": "6",
    "name": "Silverscape building",
    "type": "historic building",
    "lat": "42.319683",
    "lon": "-72.629865",
    "url": "http://historic-northampton.org/virtual_tours/architecture/q1firstnational.html",
    "address_id": "4",
    "photographCredits": "",
    "street_number": "1",
    "street": "King Street",
    "city": "Northampton",
    "state": "MA",
    "lat": "42.319683",
    "lon": "-72.629865"
  }
}
